{"2": {"name": "C. Epigmenio Glez./ Av. 16 de Sept.", "latitude": 20.666378, "longitude": -103.34882}, "3": {"name": "C. Colonias / Av. Niños héroes", "latitude": 20.667228, "longitude": -103.366}, "4": {"name": "C. Vidrio / Av. Chapultepec", "latitude": 20.66769, "longitude": -103.368252}, "5": {"name": "C. Ghilardi /C. Miraflores", "latitude": 20.69175, "longitude": -103.36255}, "6": {"name": "C. San Diego /Calzada Independencia", "latitude": 20.6811575, "longitude": -103.339363}, "8": {"name": "C. Venustiano Carranza /C. Reforma", "latitude": 20.680717, "longitude": -103.344415}, "9": {"name": "C. Epigmenio Glez./Av. Cristobal C.", "latitude": 20.666771, "longitude": -103.350562}, "10": {"name": "C. J. Angulo / C. González Ortega", "latitude": 20.681871, "longitude": -103.350396}, "11": {"name": "Calz. Federalismo/ C. J. Angulo", "latitude": 20.682076846084616, "longitude": -103.353835}, "12": {"name": "C. Cruz verde / C. Joaquin Angulo", "latitude": 20.6818519, "longitude": -103.3573381}, "13": {"name": "C. Garibaldi / C. Frías", "latitude": 20.681081, "longitude": -103.360099}, "14": {"name": "C. Joaquín Angulo / C. Ghilardi", "latitude": 20.6820683, "longitude": -103.3629218}, "15": {"name": "C. Vidrio / C. Marsella", "latitude": 20.667623, "longitude": -103.370499}, "16": {"name": "C. J. Angulo/C José Clemente Orozco", "latitude": 20.6821447, "longitude": -103.3659297}, "17": {"name": "C. Herrera y Cairo /C. Pedro Buzeta", "latitude": 20.683191, "longitude": -103.369349}, "18": {"name": "C. Bernardo de Balbuena/C J. Angulo", "latitude": 20.68246370174547, "longitude": -103.3726232}, "19": {"name": "Av. México /C. Bernardo de Balbuena", "latitude": 20.679086, "longitude": -103.372841}, "20": {"name": "Av. México / C. Manuel M. Diéguez", "latitude": 20.679296, "longitude": -103.370658}, "21": {"name": "C. Juan Manuel / C. Andrés Terán", "latitude": 20.67881367004353, "longitude": -103.3680584}, "22": {"name": "Juan Manuel / C.General Coronado", "latitude": 20.678714, "longitude": -103.36573}, "23": {"name": "C. Nicolás Romero / C. Reforma", "latitude": 20.67966, "longitude": -103.362224}, "24": {"name": "C. San Felipe /C Enrique D. de León", "latitude": 20.679389, "longitude": -103.35913}, "25": {"name": "C. Jesús / C. San Felipe", "latitude": 20.679309, "longitude": -103.356281}, "26": {"name": "Av. Federalismo / C. Juan Manuel", "latitude": 20.678777, "longitude": -103.354035}, "27": {"name": "C. Reforma / C. González Ortega", "latitude": 20.680227, "longitude": -103.350146}, "28": {"name": "C. Pedro Loza / C. Reforma", "latitude": 20.680478, "longitude": -103.348377}, "29": {"name": "C. Belén / C. San Felipe", "latitude": 20.679861, "longitude": -103.345198}, "30": {"name": "C. Gregorio Dávila /C. Manuel Acuña", "latitude": 20.6840145, "longitude": -103.3612673}, "31": {"name": "Calz. Indep. /C. Juan Manuel", "latitude": 20.679899, "longitude": -103.339438}, "32": {"name": "C. Pedro Moreno/ C. Progreso", "latitude": 20.675461, "longitude": -103.367501}, "33": {"name": "C. Hospital / C. Andrés Terán", "latitude": 20.685652, "longitude": -103.368215}, "34": {"name": "C. Degollado / Av. Hidalgo", "latitude": 20.6772627, "longitude": -103.344908}, "35": {"name": "Av. Hidalgo / C. Pedro Loza", "latitude": 20.677419, "longitude": -103.347983}, "36": {"name": "C. Morelos / C. Donato Guerra", "latitude": 20.676461, "longitude": -103.350244}, "37": {"name": "C. Mezquitán / Av. Hidalgo", "latitude": 20.677315, "longitude": -103.3534145}, "38": {"name": "C. Marcos Castellanos/ C. Morelos", "latitude": 20.676078, "longitude": -103.356458}, "39": {"name": "C.Juan N. Cumplido /C. Independenci", "latitude": 20.678034, "longitude": -103.358466}, "40": {"name": "C. Nicolás Romero / Av. Hidalgo", "latitude": 20.676656, "longitude": -103.362331}, "41": {"name": "C. General Coronado / Av. Hidalgo", "latitude": 20.677108, "longitude": -103.365088}, "42": {"name": "C. Morelos / C. Progreso", "latitude": 20.676067, "longitude": -103.367049}, "43": {"name": "C. Manuel M. Diéguez / Av. Hidalgo", "latitude": 20.67671, "longitude": -103.37066}, "44": {"name": "C. Bernardo de Balbuena /Av Hidalgo", "latitude": 20.676628, "longitude": -103.372687}, "45": {"name": "C. Simón Bolivar / C. López Cotilla", "latitude": 20.673756, "longitude": -103.372613}, "46": {"name": "C. Gral. San Martín /Av. Vallarta", "latitude": 20.674636, "longitude": -103.371639}, "47": {"name": "C. Pedro Moreno / C. Marsella", "latitude": 20.675444, "longitude": -103.370147}, "48": {"name": "C. Emerson / Av. Vallarta", "latitude": 20.675014, "longitude": -103.365025}, "49": {"name": "C. Robles Gil / Av. Vallarta", "latitude": 20.674931, "longitude": -103.362351}, "50": {"name": "C. Constancio Hernández/ Av. Juaréz", "latitude": 20.674721, "longitude": -103.358548}, "51": {"name": "Lopez Cotilla/ Marcos Castellanos", "latitude": 20.6740865, "longitude": -103.3563196}, "52": {"name": "C. Pedro Moreno / Calz. Federalismo", "latitude": 20.675746, "longitude": -103.354579}, "53": {"name": "C. 8 de Julio / Av. Juárez", "latitude": 20.674559, "longitude": -103.352663}, "54": {"name": "Av. Juárez / Av. 16 de Septiembre", "latitude": 20.675244, "longitude": -103.347889}, "55": {"name": "C. Maestranza / Av. Juárez", "latitude": 20.675401, "longitude": -103.345665}, "56": {"name": "Av. Juárez / Calz. Independencia", "latitude": 20.675421, "longitude": -103.342049}, "57": {"name": "C. Degollado /C.Prisciliano Sánchez", "latitude": 20.672696, "longitude": -103.345366}, "58": {"name": "Av. 16 de Sept. / C. Miguel Blanco", "latitude": 20.671971, "longitude": -103.347422}, "59": {"name": "C. Ocampo / C. Prisciliano Sánchez", "latitude": 20.672706722709474, "longitude": -103.3496159}, "60": {"name": "C. Pavo / C. Prisciliano Sánchez", "latitude": 20.672641, "longitude": -103.353542}, "61": {"name": "C. Miguel Blanco / C. Penitenciaria", "latitude": 20.672231, "longitude": -103.355508}, "62": {"name": "C. Madero/ C. Camarena", "latitude": 20.6734, "longitude": -103.357684}, "63": {"name": "C. Libertad / C. Argentina", "latitude": 20.671778, "longitude": -103.361274}, "64": {"name": "C. Libertad / C. Moscú", "latitude": 20.673072, "longitude": -103.365055}, "65": {"name": "C. Colonias / C. López Cotilla", "latitude": 20.674132, "longitude": -103.366139}, "66": {"name": "C. Marsella / C. López Cotilla", "latitude": 20.673321, "longitude": -103.370571}, "67": {"name": "C. Simón Bolivar / Av. La Paz", "latitude": 20.6722064, "longitude": -103.372588}, "68": {"name": "C Lerdo de Tejada/C Gral. Sn Martín", "latitude": 20.671364, "longitude": -103.371786}, "69": {"name": "Calzada Federalismo / C. Vidrio", "latitude": 20.6668825, "longitude": -103.3555917}, "70": {"name": "C. Guadalupe Zuno / Av. Chapultepec", "latitude": 20.670512, "longitude": -103.368306}, "71": {"name": "C. Colonias / C. Guadalupe Zuno", "latitude": 20.670468, "longitude": -103.366071}, "72": {"name": "Av. La Paz / C. Juan de Ojeda", "latitude": 20.671455, "longitude": -103.363633}, "73": {"name": "Av. La Paz /Av.Enrique Díaz de León", "latitude": 20.670362, "longitude": -103.359537}, "74": {"name": "Av. La Paz / C. Camarena", "latitude": 20.67056, "longitude": -103.357589}, "75": {"name": "Av. La Paz / Av. Federalismo", "latitude": 20.669955, "longitude": -103.355032}, "76": {"name": "C. Enrique González / C. Libertad", "latitude": 20.67131, "longitude": -103.351651}, "77": {"name": "C. Pedro Rioseco /C. Nueva Galicia", "latitude": 20.669628, "longitude": -103.348768}, "78": {"name": "Calz. Revolución / C. San Fernando", "latitude": 20.67096727748942, "longitude": -103.3448483}, "79": {"name": "C. Argentina / C. Pedro Moreno", "latitude": 20.675631, "longitude": -103.36134}, "80": {"name": "C. Comercio / C. La Paz", "latitude": 20.66888, "longitude": -103.34846}, "81": {"name": "C. Donato Guerra /Av. La Paz", "latitude": 20.6688627, "longitude": -103.3513022}, "82": {"name": "C. Manuel Acuña / Av. Américas", "latitude": 20.68432, "longitude": -103.373252}, "83": {"name": "C. Venezuela / Av. Niños Héroes", "latitude": 20.667352, "longitude": -103.363338}, "84": {"name": "C. Gpe. Montenegro/C.Nuño de Guzman", "latitude": 20.669326, "longitude": -103.362535}, "85": {"name": "C. Vidrio / Av. Enrique Díaz", "latitude": 20.667532, "longitude": -103.3595222}, "86": {"name": "C. Montenegro / Av. Chapultepec", "latitude": 20.669306, "longitude": -103.368312}, "87": {"name": "C. Gdpe. Zuno/ Av. Unión", "latitude": 20.670426, "longitude": -103.373378}, "88": {"name": "C. Simón Bolivar / Av. Niños Héroes", "latitude": 20.66704, "longitude": -103.372444}, "91": {"name": "(ZPN-001) Emilio Carranza /Carretera Tesistán", "latitude": 20.73244, "longitude": -103.396083}, "92": {"name": "(ZPN-002) C. Emilio Carranza /C. Independenci", "latitude": 20.726376, "longitude": -103.397466}, "93": {"name": "(ZPN-003) C. Emilio Carranza / Av. Hidalgo", "latitude": 20.723081, "longitude": -103.398071}, "94": {"name": "Av. Científicos / C. Filósofos", "latitude": 20.69995, "longitude": -103.342347}, "95": {"name": "(ZPN-005) C. Del Corral / C. Anáhuac", "latitude": 20.730841, "longitude": -103.394267}, "96": {"name": "(ZPN-006) C. Sta. Rita / Av. Avila Camacho", "latitude": 20.71953, "longitude": -103.386768}, "97": {"name": "Ex-ZPN-007 C. Libertad / Nicolás Bravo", "latitude": 20.726196, "longitude": -103.392672}, "98": {"name": "(ZPN-008) C. Vicente Guerrero / Av. Hidalgo", "latitude": 20.72201, "longitude": -103.39427}, "99": {"name": "Ex-ZPN-009 C. Del Corral / C. Nicolás Bravo", "latitude": 20.685108, "longitude": -103.333746}, "100": {"name": "(ZPN-010) C. Ramón Corona / C. Cuauhtémoc", "latitude": 20.723889, "longitude": -103.394585}, "101": {"name": "(ZPN-011) C. Pino Suárez / C. López Cotilla", "latitude": 20.726558, "longitude": -103.389242}, "102": {"name": "(ZPN-012) C. Pino Suárez / Av. Juan Pablo II", "latitude": 20.728538, "longitude": -103.390297}, "103": {"name": "(ZPN-013) C. Eva Briseño / C. Javier Mina", "latitude": 20.720438, "longitude": -103.391894}, "104": {"name": "(ZPN-014) C. Plata / Av. Laureles", "latitude": 20.7352743, "longitude": -103.3997461}, "105": {"name": "(ZPN-015) Blvr. de la Espuela / Blvr. Charros", "latitude": 20.735255, "longitude": -103.394636}, "106": {"name": "(ZPN-016) Av. Hidalgo/ C. Emiliano Zapata", "latitude": 20.721643, "longitude": -103.3902}, "107": {"name": "(ZPN-017) C. Juan Manuel / C. Pedro Moreno", "latitude": 20.72374, "longitude": -103.388657}, "108": {"name": "(ZPN-018) Av. Laureles / Blvrd. Panamericano", "latitude": 20.7276186, "longitude": -103.3859946}, "109": {"name": "Ex-ZPN-019 C. Cabecera Mpal. Juan Manuel / C.", "latitude": 20.7232207, "longitude": -103.3855829}, "110": {"name": "(ZPN-020) Av. Aurelio Ortega / Av. Laureles", "latitude": 20.720987, "longitude": -103.38625}, "111": {"name": "(ZPN-021) Blvrd. Panamericano/ C.Santa Mónica", "latitude": 20.728243, "longitude": -103.384072}, "112": {"name": "(ZPN-022) Av. Aurelio Ortega / C. Morelos", "latitude": 20.722427, "longitude": -103.383}, "113": {"name": "EX-ZPN-023 C. Juan Diego / C. Sarcófago", "latitude": 20.72489, "longitude": -103.383614}, "114": {"name": "EX-ZPN-024 Manuel H. Alatorre / C. Industria", "latitude": 20.72356, "longitude": -103.381901}, "115": {"name": "(ZPN-025) Av. V. Carranza / Av. Jose Simeon", "latitude": 20.731202, "longitude": -103.380651}, "116": {"name": "Ex-ZPN-026 C. 16 Sep. / C. Fray A. de Segovia", "latitude": 20.68692, "longitude": -103.33467}, "117": {"name": "(ZPN-027) C. 5 de Mayo / C. Noviembre", "latitude": 20.720452, "longitude": -103.388629}, "118": {"name": "(ZPN-028) Av. F. Aranguren / Av. Laureles", "latitude": 20.737087, "longitude": -103.401285}, "119": {"name": "(ZPN-029) C. La Villa / C. Cuauhtémoc", "latitude": 20.728147, "longitude": -103.393858}, "120": {"name": "(ZPN-030) Av.Juan Pablo II / Lázaro Cárdenas", "latitude": 20.736557, "longitude": -103.401357}, "125": {"name": "(ZPN-031) C. Niño Obrero/Calz Lázaro Cárdenas", "latitude": 20.67342, "longitude": -103.40945}, "126": {"name": "(ZPN-032) Calz Lázaro Cárdenas / Av San Fco", "latitude": 20.67195, "longitude": -103.40641}, "127": {"name": "(ZPN-033) Av Lázaro Cárdenas / Av San Ignacio", "latitude": 20.6707, "longitude": -103.40458}, "128": {"name": "(ZPN-034) C. San Demetrio / C. Niño Obrero", "latitude": 20.66984, "longitude": -103.40968}, "129": {"name": "(ZPN-035) C. San Juan Bosco / Av. San Ignacio", "latitude": 20.66844, "longitude": -103.40495}, "130": {"name": "(ZPN-036) C. Niño Obrero /C José María Robles", "latitude": 20.66731, "longitude": -103.40953}, "131": {"name": "(ZPN-037) Av. San Ignacio / Av. Guadalupe", "latitude": 20.666914, "longitude": -103.402512}, "132": {"name": "(ZPN-038) C. Santa Rita / Av. Guadalupe", "latitude": 20.666033, "longitude": -103.40687}, "133": {"name": "(ZPN-039) Av. Niño Obrero / C. Juan Diego", "latitude": 20.66312806, "longitude": -103.4079076}, "134": {"name": "(ZPN-040) C. Santa María / C. Árbol", "latitude": 20.66033761, "longitude": -103.4037559}, "135": {"name": "(ZPN-041) C. 12 de Diciembre / C. Juan Diego", "latitude": 20.66463, "longitude": -103.404}, "136": {"name": "(ZPN-042) C. Tonatiuh / Av. Netzahualcóyotl", "latitude": 20.65925105, "longitude": -103.4065612}, "137": {"name": "(ZPN-043) C. Ermita / C. Del Árbol", "latitude": 20.65938, "longitude": -103.40195}, "138": {"name": "Ex-ZPN-044", "latitude": 20.69705, "longitude": -103.36322}, "139": {"name": "(ZPN-045) Av. Tizoc / C. Iztaccíhuatl", "latitude": 20.65701, "longitude": -103.40464}, "140": {"name": "(ZPN-046) Av. Cubilete / Av. López Mateos", "latitude": 20.656866, "longitude": -103.397725}, "141": {"name": "(ZPN-047) Av. Tizoc / Av. López Mateos", "latitude": 20.65381, "longitude": -103.40134}, "142": {"name": "(TLQ-001) BlvrdGarcía Barragán/C. Río Tajo", "latitude": 20.64483, "longitude": -103.31948}, "143": {"name": "(TLQ-002) C. Juárez / Av. Niños Héroes", "latitude": 20.6383352, "longitude": -103.3163317}, "144": {"name": "(TLQ-003) C. Contreras Medellín/Donato Guerra", "latitude": 20.64193, "longitude": -103.31366}, "145": {"name": "(TLQ-004) C. Donato Guerra / C. Obregón", "latitude": 20.64185, "longitude": -103.3106}, "146": {"name": "(TLQ-005) C. Zalatitán / C. Jalisco", "latitude": 20.64188, "longitude": -103.30651}, "147": {"name": "Ex-TLQ-006 C. Zalatitán / Av. Francisco Silva", "latitude": 20.641848, "longitude": -103.3026}, "148": {"name": "(TLQ-007) Blvrd.García Barragán/Donato Guerra", "latitude": 20.64176, "longitude": -103.31716}, "149": {"name": "Ex-TLQ-008 C. Juárez / C.Francisco de Miranda", "latitude": 20.63841, "longitude": -103.31334}, "150": {"name": "(TLQ-009) C. Progreso / C. Juárez", "latitude": 20.63816, "longitude": -103.31148}, "151": {"name": "(TLQ-010) C. Zaragoza / C. Emilio Carranza", "latitude": 20.63834, "longitude": -103.30952}, "152": {"name": "(TLQ-011) C. Jalisco / C. Hidalgo", "latitude": 20.63922, "longitude": -103.30465}, "153": {"name": "(TLQ-012) C. Paseo Don Bosco / C. Tonalá", "latitude": 20.63613, "longitude": -103.3019}, "154": {"name": "Av. Américas / Av. López Mateos", "latitude": 20.69493, "longitude": -103.37333}, "155": {"name": "Av.Plan de San Luis/C. Andrés Teran", "latitude": 20.6972, "longitude": -103.36773}, "156": {"name": "C. Juan Álvarez / C. Cruz Verde", "latitude": 20.68456, "longitude": -103.35699}, "157": {"name": "Calz. Federalismo / C. Durango", "latitude": 20.69865, "longitude": -103.35519}, "158": {"name": "C. Magisterio /Av. M. Ávila Camacho", "latitude": 20.696097, "longitude": -103.349382}, "159": {"name": "Calz Federalismo / Av Plan San Luis", "latitude": 20.69610588, "longitude": -103.3549492}, "160": {"name": "C. H Colegio Militar / Av. Américas", "latitude": 20.69311, "longitude": -103.37298}, "161": {"name": "C. Manuel Cambre / C. Andrés Teran", "latitude": 20.69324, "longitude": -103.36757}, "162": {"name": "C. Mariano Bárcena / Maestros", "latitude": 20.692725, "longitude": -103.3516}, "163": {"name": "C. Jesús García / C. González Orte", "latitude": 20.6891, "longitude": -103.35071}, "164": {"name": "C.Jesús García / C. Juan N Cumplido", "latitude": 20.68859810720792, "longitude": -103.3584672}, "165": {"name": "Calz. Federalismo / Av. Maestros", "latitude": 20.6919612, "longitude": -103.3540408}, "166": {"name": "C. Eulogio Parra /C.González Ortega", "latitude": 20.687196, "longitude": -103.350525}, "167": {"name": "C. Ayuntamiento/C. A. R. Plasencia", "latitude": 20.69269, "longitude": -103.37082}, "168": {"name": "C. Amado Nervo /C. José María Vigil", "latitude": 20.68969, "longitude": -103.37486}, "169": {"name": "C. María Vigil/C. Manuel M. Dieguez", "latitude": 20.68985, "longitude": -103.37071}, "170": {"name": "J. Clemente Orozco /C. Jesús García", "latitude": 20.68861, "longitude": -103.365814}, "171": {"name": "C. Pedro Loza / Av. Manuel Acuña", "latitude": 20.68348, "longitude": -103.34853}, "172": {"name": "C. Pino Suárez / C. Joaquin Angulo", "latitude": 20.6822, "longitude": -103.34601}, "173": {"name": "C. Juan Álvarez / C. Belén", "latitude": 20.68465, "longitude": -103.34526}, "174": {"name": "Calz. Federalismo/C. J. María Vigil", "latitude": 20.68981, "longitude": -103.353973}, "175": {"name": "C. Hospital / C. Alameda", "latitude": 20.68586, "longitude": -103.33964}, "176": {"name": "C. Eulogio Parra / Av. Américas", "latitude": 20.68725, "longitude": -103.37363}, "177": {"name": "C. Manuel Diéguez/Av. Eulogio Parra", "latitude": 20.68723, "longitude": -103.37084}, "178": {"name": "C. José Palomar / C. Hospital", "latitude": 20.6863794, "longitude": -103.3368076}, "179": {"name": "C. C. Orozco/C. Gral. Eulogio Parra", "latitude": 20.687, "longitude": -103.36582}, "180": {"name": "C. Ghilardi / C. Arista", "latitude": 20.6880337, "longitude": -103.362716}, "181": {"name": "C. Monte Cáucaso / C. Alameda", "latitude": 20.68925, "longitude": -103.3361}, "182": {"name": "Calz. Federalismo / C. Fco. Zarco", "latitude": 20.68605, "longitude": -103.35408}, "183": {"name": "Av Manuel Acuña/C. Pablo Villaseñor", "latitude": 20.68447, "longitude": -103.37989}, "184": {"name": "Av Manuel Acuña / C Fray Fco Frejes", "latitude": 20.68427, "longitude": -103.37653}, "185": {"name": "C. Antonio de León / C. Garibaldi", "latitude": 20.68168, "longitude": -103.38197}, "186": {"name": "C. Fco Rojas González /C. Garibaldi", "latitude": 20.68153, "longitude": -103.3785}, "187": {"name": "C. Agustín de la Rosa /C. Garibaldi", "latitude": 20.68132, "longitude": -103.37537}, "188": {"name": "C. Tomás V. Gómez / Av. México", "latitude": 20.67914, "longitude": -103.38253}, "189": {"name": "C. Fray Luis DePalacio/ Av. México", "latitude": 20.67947, "longitude": -103.37926}, "190": {"name": "C. Aurelio L. Gallardo / Av. México", "latitude": 20.67945, "longitude": -103.376}, "191": {"name": "C. Severo Díaz / C. Justo Sierra", "latitude": 20.6776729, "longitude": -103.3835367}, "192": {"name": "C. Pablo Villaseñor / Av. Hidalgo", "latitude": 20.67691, "longitude": -103.37993}, "193": {"name": "C. Aurelio L. Gallardo / Av Hidalgo", "latitude": 20.67647, "longitude": -103.37606}, "194": {"name": "Av. Vallarta / Av. de Los Arcos", "latitude": 20.67438, "longitude": -103.38488}, "195": {"name": "Av. Morelos / C. Emilio Castelar", "latitude": 20.67554, "longitude": -103.38409}, "196": {"name": "C. Lope de Vega / Av. Vallarta", "latitude": 20.67455, "longitude": -103.37998}, "197": {"name": "C. J. Ruíz de Alarcón / Av Vallarta", "latitude": 20.67448, "longitude": -103.37618}, "198": {"name": "C. Emilio Castelar / Av. La Paz", "latitude": 20.67206, "longitude": -103.384}, "199": {"name": "C. Lope de Vega / Av. La Paz", "latitude": 20.67207, "longitude": -103.37997}, "200": {"name": "C. J. Ruíz de Alarcón / Av. La Paz", "latitude": 20.67189, "longitude": -103.37608}, "201": {"name": "C. Agustín Yáñez / C. Fco Ugarte", "latitude": 20.670209, "longitude": -103.384221}, "202": {"name": "C. Victoriano Agüeros / Av. Unión", "latitude": 20.66868, "longitude": -103.3731}, "203": {"name": "C. Lope de Vega/C. Efraín Glez Luna", "latitude": 20.66927, "longitude": -103.37983}, "204": {"name": "C. Ruíz de Alarcón/C. Efraín G Luna", "latitude": 20.66957, "longitude": -103.37623}, "205": {"name": "C. de la Nebulosa / C. Placeres", "latitude": 20.66557, "longitude": -103.39134}, "206": {"name": "C. Firmamento / Av. Niños Héroes", "latitude": 20.66667, "longitude": -103.38863}, "207": {"name": "C. Constelación / Av. de los Arcos", "latitude": 20.66816, "longitude": -103.38488}, "208": {"name": "C. Ruíz de Alarcón/C. Agustín Yáñez", "latitude": 20.66702, "longitude": -103.37621}, "209": {"name": "C. De la Nebulosa / C. Firmamento", "latitude": 20.6647, "longitude": -103.38855}, "210": {"name": "C. Eclipse / Av. de Los Arcos", "latitude": 20.6625, "longitude": -103.38407}, "211": {"name": "C. Primo Feliciano / C. San Gabriel", "latitude": 20.669931, "longitude": -103.394307}, "212": {"name": "C. San Miguel / Av. San Francisco", "latitude": 20.66736, "longitude": -103.3947}, "213": {"name": "Av. Guadalupe / C. Boturini", "latitude": 20.6662882, "longitude": -103.3988986}, "214": {"name": "Calz. Lázaro Cárdenas/Av. Guadalupe", "latitude": 20.66623, "longitude": -103.39654}, "215": {"name": "C. San Rafael / Av. Tepeyac", "latitude": 20.66501, "longitude": -103.39788}, "216": {"name": "Calz. Lázaro Cárdenas/López Mateos", "latitude": 20.66511, "longitude": -103.39388}, "217": {"name": "C. Asunción / Av. Chapalita", "latitude": 20.661387, "longitude": -103.392533}, "218": {"name": "C. Capuchinas / Av. Chapalita", "latitude": 20.66, "longitude": -103.39496}, "219": {"name": "Parque de las Estrellas/C. Orión", "latitude": 20.65931, "longitude": -103.38884}, "220": {"name": "C. Crepúsculo / Av. Tonantzin", "latitude": 20.65846, "longitude": -103.39092}, "221": {"name": "C. Capuchinas / Av. Las Rosas", "latitude": 20.65761, "longitude": -103.39363}, "222": {"name": "Parque de las Estrellas/Mariano Ote", "latitude": 20.65712973, "longitude": -103.3883797}, "223": {"name": "C. Crepúsculo / Av. Mariano Otero", "latitude": 20.6564, "longitude": -103.38956}, "224": {"name": "Av. Mariano Otero/ Av. De las Rosas", "latitude": 20.654709, "longitude": -103.391595}, "225": {"name": "Av. Faro / Av. Las Rosas", "latitude": 20.65158, "longitude": -103.38957}, "226": {"name": "C. Guadalupe Victoria /Del Ejercito", "latitude": 20.66468, "longitude": -103.33357}, "227": {"name": "C.Silverio Garcia/Blvrd. García Ba", "latitude": 20.66114, "longitude": -103.3315}, "228": {"name": "C. Rio Usumacinta/Blvrd García Barr", "latitude": 20.65925, "longitude": -103.33055}, "229": {"name": "C. Rio Tuxpan / C. Salvador Lopez C", "latitude": 20.65721, "longitude": -103.33046}, "230": {"name": "C. Corregidora / Blvrd. García B.", "latitude": 20.657817, "longitude": -103.32898}, "231": {"name": "Av. Olímpica /C. José Rolon", "latitude": 20.655, "longitude": -103.32186}, "232": {"name": "C. Rio Panuco/ Blvrd. García B.", "latitude": 20.65251, "longitude": -103.32553}, "233": {"name": "C. Rio Principal / Blvrd. García B.", "latitude": 20.65475, "longitude": -103.32719}, "234": {"name": "C. Rio San Juan de Dios/Blvrd. Garc", "latitude": 20.64962, "longitude": -103.32356}, "235": {"name": "Av. Rio Nilo / C. Ramón Pacheco", "latitude": 20.64874, "longitude": -103.31939}, "236": {"name": "Blvrd. García Barragán/ C. Rio Zapo", "latitude": 20.64707, "longitude": -103.32147}, "237": {"name": "C. Relojeros/ C. Chamizal", "latitude": 20.64698, "longitude": -103.30619}, "238": {"name": "C. Maquinistas / C. San Rafael", "latitude": 20.6461, "longitude": -103.3102}, "239": {"name": "C. Chamizal / Av. Rio Nilo", "latitude": 20.64434, "longitude": -103.30678}, "240": {"name": "C. Caballerango / C. Caporales", "latitude": 20.64504, "longitude": -103.30518}, "241": {"name": "C. Juan de Zumárraga / Av. Tepeyac", "latitude": 20.6641, "longitude": -103.4003}, "242": {"name": "C. Ermita / C. San Uriel", "latitude": 20.66234072, "longitude": -103.3981344}, "243": {"name": "C. San Bonifacio/ Paseo Benedictino", "latitude": 20.67276201, "longitude": -103.3976249}, "244": {"name": "C. Fray Fco Frejes / C. Fco Zarco", "latitude": 20.68669, "longitude": -103.37657}, "246": {"name": "Salvador Quevedo/López Portillo", "latitude": 20.6853596, "longitude": -103.3339031}, "247": {"name": "C. Monte Cáucaso / C. Sierra Nevada", "latitude": 20.68795, "longitude": -103.33343}, "248": {"name": "C. Montes Pirineos/Salvador Quevedo", "latitude": 20.68692, "longitude": -103.33467}, "249": {"name": "C.Ignacio Rmrz / Av Plan de San Lui", "latitude": 20.69705, "longitude": -103.36322}, "250": {"name": "Av. Plan de San Luis / Av. Enríque", "latitude": 20.6969715, "longitude": -103.3581976}, "251": {"name": "(TLQ-006) C. Miguel Hidalgo / Calz. Revolució", "latitude": 20.639042, "longitude": -103.301239}, "253": {"name": "C. Duque de Rivas/ C. López Cotilla", "latitude": 20.673236932855744, "longitude": -103.3826946}, "254": {"name": "C. General Coronado / C.Juan Manuel", "latitude": 20.67848, "longitude": -103.365103}, "255": {"name": "C. General Coronado / C. Manuel Acu", "latitude": 20.6843419, "longitude": -103.3646036}, "256": {"name": "Calz. Independencia / Av. Niños Hér", "latitude": 20.6639862, "longitude": -103.3480775}, "257": {"name": "Ingreso Cucei / Revolución", "latitude": 20.659581, "longitude": -103.324147}, "258": {"name": "Dr. Silverio García /Av. Revolución", "latitude": 20.66318, "longitude": -103.32942}, "259": {"name": "C. Argentina / C. Francia", "latitude": 20.66429, "longitude": -103.3628}, "260": {"name": "Av. 16 de Septiembre / C. Priscilia", "latitude": 20.6726395, "longitude": -103.3471549}, "261": {"name": "Av. de la Presa / Av. Manuel A. Cam", "latitude": 20.70928, "longitude": -103.37015}, "262": {"name": "C. 5 de Mayo/ Av. Revolución", "latitude": 20.6692, "longitude": -103.34116}, "263": {"name": "C. Anahuac / Av. Revolución", "latitude": 20.6708, "longitude": -103.34385}, "264": {"name": "Plaza de los Mariachis", "latitude": 20.6744, "longitude": -103.34123}, "265": {"name": "Calle A1 / Av. Manuel A. Camacho", "latitude": 20.70656, "longitude": -103.36564}, "266": {"name": "C. Hawai / C. Nicolás Romero", "latitude": 20.70211, "longitude": -103.35996}, "267": {"name": "Av. Revolución / C. Ramón López Ve", "latitude": 20.65048, "longitude": -103.30999}, "268": {"name": "C. Ramón Corona / Av. Juárez", "latitude": 20.67529, "longitude": -103.34656}, "269": {"name": "C. Esmeralda / C. Manuel Acuña", "latitude": 20.68361, "longitude": -103.33756}, "270": {"name": "Av. Río Nilo / Av. Revolución", "latitude": 20.64517, "longitude": -103.30313}, "271": {"name": "Av. Alcalde / C. Hospital", "latitude": 20.68504, "longitude": -103.34796}, "272": {"name": "C. Jesús García/Av. Alcalde", "latitude": 20.6891, "longitude": -103.34806}, "273": {"name": "Av. Alcalde /Av. Manuel A. Camacho", "latitude": 20.69406, "longitude": -103.34824}, "274": {"name": "Av. de los Normalistas / C. M. Guti", "latitude": 20.69442, "longitude": -103.34474}, "275": {"name": "C. Magisterio / C. Durango", "latitude": 20.69898, "longitude": -103.34893}, "276": {"name": "Av. Federalismo / C. Tamaulipas", "latitude": 20.70046, "longitude": -103.35478}, "277": {"name": "C. España/ Av. Chapultepec", "latitude": 20.6651, "longitude": -103.36807}, "278": {"name": "Av. Agustín Yáñez /C. Venezuela", "latitude": 20.66265, "longitude": -103.36554}, "279": {"name": "C. Suiza / Av. Enrique Díaz de león", "latitude": 20.66231, "longitude": -103.36011}, "280": {"name": "C. Lázaro Pérez / C. Escorza", "latitude": 20.66563, "longitude": -103.35802}, "281": {"name": "Av. España / Av. Federalismo", "latitude": 20.66081, "longitude": -103.35704}, "282": {"name": "Calz. del Campesino / Calz. Indepen", "latitude": 20.6605183, "longitude": -103.3503245}, "283": {"name": "Av. Washington / Calz. Independenci", "latitude": 20.65775, "longitude": -103.35132}, "284": {"name": "Av. Washington / C. Rusia", "latitude": 20.65883, "longitude": -103.35468}, "285": {"name": "C. Nicolás Romero / C. Jaime Nunó", "latitude": 20.70047, "longitude": -103.36158}, "286": {"name": "(ZPN-023) Blvrd. de la Espuela / C. Silvano B", "latitude": 20.73231, "longitude": -103.38763}, "287": {"name": "(ZPN-024) C. Francisco Sarabia / Av. Laureles", "latitude": 20.73445, "longitude": -103.3985614}, "288": {"name": "(ZPN-048) Av. J. Parres Arias / Prol. López C", "latitude": 20.72958, "longitude": -103.38859}, "289": {"name": "(ZPN-049) Ávila Camacho/ Lábaro Patrio", "latitude": 20.7178, "longitude": -103.38338}, "290": {"name": "(ZPN-050) C. el Mediero / Prol. Laureles", "latitude": 20.73432, "longitude": -103.38427}, "291": {"name": "(ZPN-051) Av. Periférico G. Morín / Av. J. Pa", "latitude": 20.73837, "longitude": -103.38057}, "292": {"name": "(ZPN-052) C. del Pial / C. del Vigía", "latitude": 20.73245, "longitude": -103.39291}, "293": {"name": "(ZPN-053) Prol. Laureles / Av. Periférico G.", "latitude": 20.73836, "longitude": -103.38299}, "294": {"name": "(ZPN-054) Av. J. Parres Arias / C. Ignacio Ja", "latitude": 20.73441, "longitude": -103.38079}, "295": {"name": "(ZPN-055) Prol. Laureles / Av. J. Parres Aria", "latitude": 20.73154, "longitude": -103.38515}, "296": {"name": "(ZPN-056) Av. M. Ávila Camacho / C. San Jorge", "latitude": 20.71365, "longitude": -103.37742}, "302": {"name": "(TLQ-008) C. Independencia / C. Allende", "latitude": 20.639187, "longitude": -103.3086}, "303": {"name": "C. Ontario / Av. Manuel Acuña", "latitude": 20.684519, "longitude": -103.383085}, "304": {"name": "C. Chihuahua / C. Miguel Galindo", "latitude": 20.702745, "longitude": -103.356511}, "305": {"name": "C. Dr. Pérez Arce/ C. Gómez Farias", "latitude": 20.6679675, "longitude": -103.326566}, "306": {"name": "(ZPN-066) C. Cuauhtémoc / Av. Tepeyac", "latitude": 20.660955, "longitude": -103.408683}, "307": {"name": "C. Durango / C. Gregorio Davila", "latitude": 20.6991544, "longitude": -103.3599679}, "308": {"name": "(ZPN-065) C. Del Carmen / Av. Guadalupe", "latitude": 20.6649061, "longitude": -103.4109615}, "309": {"name": "(ZPN-064) C. Sto de Aquino / Av. Sta Teresa", "latitude": 20.6669929, "longitude": -103.4133282}, "310": {"name": "(ZPN-063) C. San Felipe Neri / Av. Guadalupe", "latitude": 20.6644831, "longitude": -103.4130582}, "311": {"name": "C. Tepic / C. Frías.", "latitude": 20.6964426, "longitude": -103.3592252}, "312": {"name": "(ZPN-067) C. Chimalhuacán / Av. López Mateos", "latitude": 20.6515919, "longitude": -103.4027691}, "313": {"name": "(ZPN-057) C. Escultores / Av. Guadalupe", "latitude": 20.6637066, "longitude": -103.4178168}, "314": {"name": "(ZPN-062) C. Loyola / C. Organización", "latitude": 20.6604258, "longitude": -103.4136351}, "315": {"name": "(ZPN-061) C. Organización / Av. Guadalupe", "latitude": 20.6638448, "longitude": -103.4151424}, "316": {"name": "(ZPN-060) C. De Los Leones / Av. Tepeyac", "latitude": 20.6587944, "longitude": -103.41456}, "317": {"name": "C. Reyes Flores/ C.Federico Medrano", "latitude": 20.6649445, "longitude": -103.3266332}, "318": {"name": "C. Aldama / C. Dr. Leonardo Oliva", "latitude": 20.6674498, "longitude": -103.3295016}, "319": {"name": "(ZPN-058) Av. Labna / Av. Tepeyac", "latitude": 20.656551, "longitude": -103.4194212}, "320": {"name": "(ZPN-059) C. Prados los Pinos/ Av. Tepeyac", "latitude": 20.6579741, "longitude": -103.4173432}, "321": {"name": "C.Hércules / Av. De la Arboleda", "latitude": 20.664447, "longitude": -103.3853111}, "322": {"name": "C. Gral Carlos Fuero/Av. Revolución", "latitude": 20.6542657, "longitude": -103.3159228}, "323": {"name": "C. Palavicini / Av. Circunvalación", "latitude": 20.70467, "longitude": -103.345589}, "324": {"name": "De los científicos/ J. J. Tablada", "latitude": 20.700192, "longitude": -103.345961}, "325": {"name": "C. Luis G. Cuevas /Av. Revolución", "latitude": 20.652408, "longitude": -103.312902}, "326": {"name": "C. D. Rivera / C. Filósofos", "latitude": 20.698197, "longitude": -103.342554}, "327": {"name": "C. Artistas / C. Carlos Pereira", "latitude": 20.695636, "longitude": -103.339378}, "328": {"name": "S .Juan de Ulúa /Andrés Q.R.", "latitude": 20.704462520357072, "longitude": -103.3513929}, "329": {"name": "Félix Palavicini / División del Nte", "latitude": 20.70552451, "longitude": -103.3486422}, "330": {"name": "Félix Palavicini / Antonio Alcalde", "latitude": 20.703520589983604, "longitude": -103.347726}, "331": {"name": "C. Dionisio Rodriguez / C. Cabañas", "latitude": 20.67570792, "longitude": -103.3379879}, "332": {"name": "C. Chihuahua / C. Francisco Tejeda", "latitude": 20.70237629179792, "longitude": -103.350088}, "333": {"name": "Silvestre Revueltas Fray Antonio A", "latitude": 20.691246507989785, "longitude": -103.3480637}, "334": {"name": "C. Jarauta, Javier Mina", "latitude": 20.67263409115309, "longitude": -103.3315619}, "335": {"name": "C. Sevilla / Av. de los Maestros", "latitude": 20.69389141905075, "longitude": -103.3387738}, "336": {"name": "Av. De los Maestros / C. Mil Cumbres", "latitude": 20.694363266949257, "longitude": -103.337267}, "337": {"name": "C. Alejandrina / C. Torres Quintero", "latitude": 20.690914120973428, "longitude": -103.3371268}, "338": {"name": "Manuel Doblado / Dionisio Rodriguez", "latitude": 20.674620374825263, "longitude": -103.3319619}, "339": {"name": "(ZPN-068)Francisco Mora / Aurelio Ortega", "latitude": 20.72249627323221, "longitude": -103.3800223}, "340": {"name": "(ZPN-069)Jesús María Romo /Av. Aurelio Ortega", "latitude": 20.72229883474927, "longitude": -103.3767978}, "341": {"name": "(ZPN-070)Av. Avila Camacho / Av. Patria", "latitude": 20.712850458701983, "longitude": -103.3756647}, "342": {"name": "(ZPN-073)C. Pintores/ Av. Jose Luis Gonzaga", "latitude": 20.66518151653948, "longitude": -103.4192211}, "343": {"name": "(ZPN-074) C. Doctores / Av. San Luis Gonzaga", "latitude": 20.66459936373676, "longitude": -103.4230589}, "344": {"name": "(ZPN-076)C. Pintores / Av. Guadalupe", "latitude": 20.662569319350595, "longitude": -103.4203018}, "345": {"name": "(ZPN-075) C. Arquitectos / Av. Guadalupe", "latitude": 20.66234421, "longitude": -103.4247637}, "346": {"name": "C. Hospital / C. Humboldt", "latitude": 20.685609311891643, "longitude": -103.3437307}, "347": {"name": "C. Agustín Rivera / C. Manuel Acuña", "latitude": 20.683851280483125, "longitude": -103.3416855}, "348": {"name": "Clemente Aguirre / Roque Abarca", "latitude": 20.68323747190644, "longitude": -103.3352032}, "349": {"name": "C. Paricutin / Calz. Independencia", "latitude": 20.689575695470044, "longitude": -103.3337929}, "350": {"name": "C. La Soledad / Av. Ávila Camacho", "latitude": 20.705090971778624, "longitude": -103.3630889}, "351": {"name": "(ZPN-071)Av. San Ignacio / Av. Vallarta", "latitude": 20.674595128333017, "longitude": -103.403227}, "352": {"name": "(ZPN-072) Av. San Francisco / Av. San Ignacio", "latitude": 20.67263879018593, "longitude": -103.404018}, "353": {"name": "C. Aldama / C. 5 de Mayo", "latitude": 20.67144008587941, "longitude": -103.340668}, "354": {"name": "C. Tenerías / C. Belén", "latitude": 20.68875461291647, "longitude": -103.3455327}, "355": {"name": "C. Dionisio Rodr./ C. José Fernando", "latitude": 20.67534082965069, "longitude": -103.3362015}, "356": {"name": "C.Gómez Farías / Calz. del Ejército", "latitude": 20.669288645343627, "longitude": -103.3313351}, "357": {"name": "Heroico Colegio Militar/Revolución", "latitude": 20.666468753632724, "longitude": -103.3340264}, "358": {"name": "Valentín Gómez Farías/Riva Palacio", "latitude": 20.67007998483408, "longitude": -103.3330958}, "359": {"name": "Francisco Marquez/Federalismo", "latitude": 20.703986, "longitude": -103.354926}, "360": {"name": "C. Cabañas / C. Industria", "latitude": 20.678286847215407, "longitude": -103.338339}, "361": {"name": "C. Antonio Tello / C. Lindavista", "latitude": 20.65867106, "longitude": -103.3204866}, "362": {"name": "(TLQ-015) Contreras Medellín / Niños Héroes", "latitude": 20.64422441289209, "longitude": -103.3136955}, "363": {"name": "C. Guanajuato / C. Miguel Galindo", "latitude": 20.69446484449012, "longitude": -103.3569374}, "364": {"name": "C. Clavel / Av. Gigantes", "latitude": 20.672190093585424, "longitude": -103.3372675}, "365": {"name": "Corregidora/Pensador Mexicano", "latitude": 20.66328884495521, "longitude": -103.3249723}, "366": {"name": "Román Morales / Álvaro Obregón", "latitude": 20.67031359405098, "longitude": -103.3269727}, "368": {"name": "Josefa Ortíz/Juan Díaz Covarrubias", "latitude": 20.67633662343893, "longitude": -103.3341202}, "369": {"name": "Av. Gigantes / C. Aquiles Serdán", "latitude": 20.67042852958532, "longitude": -103.3300445}, "370": {"name": "C. Aldama / C. Orozco Berra", "latitude": 20.665505316306632, "longitude": -103.323109}, "371": {"name": "Av. Ramón Corona / C. Leandro Valle", "latitude": 20.66918870653499, "longitude": -103.3461729}, "372": {"name": "José Juan Tablada / José Vasconcelos", "latitude": 20.697480604662864, "longitude": -103.3465873}, "373": {"name": "C. Pablo Valdez / C. Mariano Jiménez", "latitude": 20.68217100573895, "longitude": -103.334639}, "374": {"name": "Churubusco / Álvaro Obregón", "latitude": 20.67221287182557, "longitude": -103.3336371}, "375": {"name": "Federico Medrano / Antonio Rosales", "latitude": 20.66960141289025, "longitude": -103.3391913}, "376": {"name": "C. Matamoros / Calz. Revolución", "latitude": 20.668321437500285, "longitude": -103.3374401}, "377": {"name": "Tamaulipas/Andrés Quintana Roo", "latitude": 20.69986542789336, "longitude": -103.3508449}, "378": {"name": "(TLQ-014) C. Hornos / C. Francisco I. Madero", "latitude": 20.64424416984587, "longitude": -103.3114337}, "379": {"name": "Junípero Serra/José Encarnación", "latitude": 20.694023395379904, "longitude": -103.3417557}, "380": {"name": "(TLQ-013)Zalatitan/Francisco Silva Romero", "latitude": 20.641813059928506, "longitude": -103.3027294}, "381": {"name": "C. Tabasco / C. Juan de la Barrera", "latitude": 20.70309729234528, "longitude": -103.3533536}, "382": {"name": "C. Jaime Nunó / C. De la Costa", "latitude": 20.693841124544143, "longitude": -103.3649267}, "383": {"name": "Hilarion Romero Gil/Gabriela Mistral", "latitude": 20.68998849512648, "longitude": -103.344978}, "384": {"name": "C. Calpulalpan / C. Independencia", "latitude": 20.678006, "longitude": -103.341808}, "385": {"name": "Juan José Baz/Silvestre Revueltas", "latitude": 20.69152344950265, "longitude": -103.3406014}, "386": {"name": "Porfirio Díaz/Francisco Javier Mina", "latitude": 20.67067005127954, "longitude": -103.3245211}, "387": {"name": "Gral. Arteaga/Fray Antonio Alcalde", "latitude": 20.6868503669376, "longitude": -103.3477905}, "388": {"name": "C. General Salazar / C. Federación", "latitude": 20.67957161674863, "longitude": -103.3366606}, "389": {"name": "estacion_nueva_1", "latitude": null, "longitude": null}, "390": {"name": "estacion_nueva_2", "latitude": null, "longitude": null}, "391": {"name": "estacion_nueva_3", "latitude": null, "longitude": null}, "392": {"name": "estacion_nueva_4", "latitude": null, "longitude": null}, "393": {"name": "estacion_nueva_5", "latitude": null, "longitude": null}, "394": {"name": "estacion_nueva_6", "latitude": null, "longitude": null}, "395": {"name": "estacion_nueva_7", "latitude": null, "longitude": null}, "396": {"name": "estacion_nueva_8", "latitude": null, "longitude": null}, "397": {"name": "estacion_nueva_9", "latitude": null, "longitude": null}, "398": {"name": "estacion_nueva_10", "latitude": null, "longitude": null}, "400": {"name": "estacion_nueva_11", "latitude": null, "longitude": null}, "401": {"name": "estacion_nueva_12", "latitude": null, "longitude": null}, "402": {"name": "estacion_nueva_13", "latitude": null, "longitude": null}}